{
  "collaborators": [
    {
      "name": "WWF",
      "fullName": "World Wide Fund for Nature",
      "lat": 46.4157,
      "lng": 6.2778,
      "location": "Gland, Switzerland",
      "url": "https://www.worldwildlife.org/",
      "logo": "./images/WWF.png"
    },
    {
      "name": "Space4water",
      "fullName": "Space4Water Portal (UN-SPIDER)",
      "lat": 48.2339,
      "lng": 16.4168,
      "location": "Vienna, Austria",
      "url": "https://space4water.org/",
      "logo": "./images/space4water.png"
    },
    {
      "name": "Kinnaird College",
      "fullName": "Kinnaird College for Women",
      "lat": 31.5204,
      "lng": 74.3587,
      "location": "Lahore, Pakistan",
      "url": "https://www.kinnaird.edu.pk/",
      "logo": "./images/kinnaird.jfif"
    },
    {
      "name": "AIRCAS",
      "fullName": "Aerospace Information Research Institute, Chinese Academy of Sciences",
      "lat": 39.9042,
      "lng": 116.4074,
      "location": "Beijing, China",
      "url": "http://www.aircas.ac.cn/",
      "logo": "./images/Aircas.png"
    },
    {
      "name": "ICIMOD",
      "fullName": "International Centre for Integrated Mountain Development",
      "lat": 27.6464,
      "lng": 85.3235,
      "location": "Lalitpur, Kathmandu, Nepal",
      "url": "https://www.icimod.org/",
      "logo": ""
    },
    {
      "name": "UNESCAP",
      "fullName": "United Nations Economic and Social Commission for Asia and the Pacific",
      "lat": 13.7631,
      "lng": 100.5078,
      "location": "Bangkok, Thailand",
      "url": "https://www.unescap.org/",
      "logo": ""
    },
    {
      "name": "ICRAF",
      "fullName": "World Agroforestry (ICRAF)",
      "lat": -1.2366,
      "lng": 36.8190,
      "location": "Nairobi, Kenya",
      "url": "https://www.worldagroforestry.org/",
      "logo": ""
    },
    {
      "name": "AFCD",
      "fullName": "Agriculture, Fisheries and Conservation Department, Hong Kong SAR",
      "lat": 22.3318,
      "lng": 114.1604,
      "location": "Kowloon, Hong Kong SAR",
      "url": "https://www.afcd.gov.hk/",
      "logo": ""
    },
    {
      "name": "KFBG",
      "fullName": "Kadoorie Farm and Botanic Garden",
      "lat": 22.4335,
      "lng": 114.1181,
      "location": "Tai Po, Hong Kong SAR",
      "url": "https://www.kfbg.org/",
      "logo": ""
    }
  ]
}
